HTTP/1.1 200 OK
Cache-Control: private
Content-Length: 5638
Content-Type: application/json; charset=utf-8
Server: Microsoft-IIS/7.5
X-AspNet-Version: 4.0.30319
X-Powered-By: ASP.NET
Date: Wed, 20 Jun 2018 01:09:46 GMT

[{"Address1":"6650 Bloomfield Rd","AgencyID":463,"City":"Bloomfield","FacilityID":"PR0000015","FacilityName":"Stormys Bloomfield Tavern","Grade":"","HasFullInspectionReports":false,"Latitude":-15.814344521,"Longitude":145.324902639,"MilesDistant":0,"Phone":null,"Score":"","State":"CA","ZIP":"94952"},{"Address1":"203 TAILOR WY","AgencyID":633,"City":"BLUE LAKE","FacilityID":"GID1173","FacilityName":"COASTSIDE FARMS SPECIALTIES","Grade":"G","HasFullInspectionReports":false,"Latitude":40.878789,"Longitude":-123.994529,"MilesDistant":0,"Phone":null,"Score":"","State":"CA","ZIP":"95000"},{"Address1":"5959 SHELLMOUND C","AgencyID":4,"City":"EMERYVILLE","FacilityID":"GID5037","FacilityName":"MR. DEWIE'S CASHEW CREAMERY","Grade":"G","HasFullInspectionReports":false,"Latitude":24.78526857,"Longitude":175.20878001,"MilesDistant":0,"Phone":null,"Score":"","State":"CA","ZIP":"94608"},{"Address1":"1333 POWELL ST","AgencyID":4,"City":"EMERYVILLE","FacilityID":"GID3563","FacilityName":"IKE'S LOVE & SANDWICHES","Grade":"G","HasFullInspectionReports":false,"Latitude":24.78576547,"Longitude":175.21023832,"MilesDistant":0,"Phone":null,"Score":"","State":"CA","ZIP":"94608"},{"Address1":"5646 BAY ST","AgencyID":4,"City":"EMERYVILLE","FacilityID":"GID1292","FacilityName":"CAFFE DUETTO","Grade":"G","HasFullInspectionReports":false,"Latitude":24.78396945,"Longitude":175.21047603,"MilesDistant":0,"Phone":null,"Score":"","State":"CA","ZIP":"94608"},{"Address1":"5624 BAY ST A","AgencyID":4,"City":"EMERYVILLE","FacilityID":"GID3629","FacilityName":"IT'S SUGAR","Grade":"G","HasFullInspectionReports":false,"Latitude":24.7836588,"Longitude":175.21076324,"MilesDistant":0,"Phone":null,"Score":"","State":"CA","ZIP":"94608"},{"Address1":"5000 ADELINE ST","AgencyID":4,"City":"EMERYVILLE","FacilityID":"GID768","FacilityName":"BASIC CAFE","Grade":"G","HasFullInspectionReports":false,"Latitude":24.78750205,"Longitude":175.21420449,"MilesDistant":0,"Phone":null,"Score":"","State":"CA","ZIP":"94608"},{"Address1":"5095 TELEGRAPH AVE","AgencyID":4,"City":"OAKLAND","FacilityID":"GID5655","FacilityName":"PEET'S COFFEE & TEA","Grade":"G","HasFullInspectionReports":false,"Latitude":24.79017734,"Longitude":175.21753426,"MilesDistant":0,"Phone":null,"Score":"","State":"CA","ZIP":"94609"},{"Address1":"5095 TELEGRAPH AVE E","AgencyID":4,"City":"OAKLAND","FacilityID":"GID6275","FacilityName":"ROUND TABLE PIZZA","Grade":"G","HasFullInspectionReports":false,"Latitude":24.79017734,"Longitude":175.21753426,"MilesDistant":0,"Phone":null,"Score":"","State":"CA","ZIP":"94609"},{"Address1":"3141 SAN PABLO AVE","AgencyID":4,"City":"OAKLAND","FacilityID":"GID2917","FacilityName":"FRESH DONUTS","Grade":"G","HasFullInspectionReports":false,"Latitude":24.78291419,"Longitude":175.21787733,"MilesDistant":0,"Phone":null,"Score":"","State":"CA","ZIP":"94608"},{"Address1":"431 WATER ST","AgencyID":4,"City":"OAKLAND","FacilityID":"GID706","FacilityName":"BAIA PASTA","Grade":"G","HasFullInspectionReports":false,"Latitude":24.7749418,"Longitude":175.22502085,"MilesDistant":0,"Phone":null,"Score":"","State":"CA","ZIP":"94607"},{"Address1":"650 W RANGER ST D","AgencyID":4,"City":"ALAMEDA","FacilityID":"GID340","FacilityName":"ALAMEDA FOOD BANK WAREHOUSE","Grade":"G","HasFullInspectionReports":false,"Latitude":24.76764678,"Longitude":175.22181797,"MilesDistant":0,"Phone":null,"Score":"","State":"CA","ZIP":"94501"},{"Address1":"2680 FIFTH ST C-D","AgencyID":4,"City":"ALAMEDA","FacilityID":"GID4049","FacilityName":"KOJA KITCHEN \/ POKE SALAD","Grade":"G","HasFullInspectionReports":false,"Latitude":24.77209155,"Longitude":175.22602135,"MilesDistant":0,"Phone":null,"Score":"","State":"CA","ZIP":"94501"},{"Address1":"2690 FIFTH ST J","AgencyID":4,"City":"ALAMEDA","FacilityID":"GID2701","FacilityName":"FAMOUS DAVE'S BBQ","Grade":"G","HasFullInspectionReports":false,"Latitude":24.77184691,"Longitude":175.22593115,"MilesDistant":0,"Phone":null,"Score":"","State":"CA","ZIP":"94501"},{"Address1":"2680 FIFTH ST B","AgencyID":4,"City":"ALAMEDA","FacilityID":"GID2759","FacilityName":"FIREHOUSE SUBS","Grade":"G","HasFullInspectionReports":false,"Latitude":24.77181892,"Longitude":175.22595418,"MilesDistant":0,"Phone":null,"Score":"","State":"CA","ZIP":"94501"},{"Address1":"2670 FIFTH ST C","AgencyID":4,"City":"ALAMEDA","FacilityID":"GID6586","FacilityName":"SHARETEA","Grade":"G","HasFullInspectionReports":false,"Latitude":24.77179093,"Longitude":175.2259772,"MilesDistant":0,"Phone":null,"Score":"","State":"CA","ZIP":"94501"},{"Address1":"2670 5TH ST A","AgencyID":4,"City":"ALAMEDA","FacilityID":"GID6772","FacilityName":"SPIN! NEAPOLITAN PIZZA","Grade":"G","HasFullInspectionReports":false,"Latitude":24.77179093,"Longitude":175.2259772,"MilesDistant":0,"Phone":null,"Score":"","State":"CA","ZIP":"94501"},{"Address1":"2660 FIFTH ST A","AgencyID":4,"City":"ALAMEDA","FacilityID":"GID6608","FacilityName":"SHIRASONI JAPANESE RESTAURANT","Grade":"G","HasFullInspectionReports":false,"Latitude":24.77176294,"Longitude":175.22600023,"MilesDistant":0,"Phone":null,"Score":"","State":"CA","ZIP":"94501"},{"Address1":"2640 5TH ST D","AgencyID":4,"City":"ALAMEDA","FacilityID":"GID7468","FacilityName":"TAVA KITCHEN","Grade":"G","HasFullInspectionReports":false,"Latitude":24.77170695,"Longitude":175.22604628,"MilesDistant":0,"Phone":null,"Score":"","State":"CA","ZIP":"94501"},{"Address1":"2640 5TH ST B","AgencyID":4,"City":"ALAMEDA","FacilityID":"GID8379","FacilityName":"YOGURTLAND","Grade":"G","HasFullInspectionReports":false,"Latitude":24.77170695,"Longitude":175.22604628,"MilesDistant":0,"Phone":null,"Score":"","State":"CA","ZIP":"94501"}]